[{"name":"CIENAGA DE ORO [13070390]","code":"13070390","type":"Pluviométrica","lat":8.87,"lon":-75.63,"municipality":"Ciénaga De Oro","active":true,"elevation":25},{"name":"ESMERALDA LA [13077210]","code":"13077210","type":"Limnimétrica","lat":9.2,"lon":-75.5667,"municipality":"San Andrés De Sotavento","active":false,"elevation":60},{"name":"LA DOCTRINA [13077040]","code":"13077040","type":"Limnimétrica","lat":9.2949,"lon":-75.8934,"municipality":"Lorica","active":true,"elevation":20},{"name":"MONTELIBANO - AUT [25017010]","code":"25017010","type":"Limnigráfica","lat":7.9882,"lon":-75.4175,"municipality":"Montelíbano","active":true,"elevation":40},{"name":"PLANETA RICA  - AUT [25025190]","code":"25025190","type":"Climatológica Ordinaria","lat":8.3993,"lon":-75.5837,"municipality":"Planeta Rica","active":true,"elevation":90},{"name":"BUENOS AIRES 1 [13070170]","code":"13070170","type":"Pluviométrica","lat":8.7728,"lon":-75.7497,"municipality":"San Carlos","active":true,"elevation":9},{"name":"CHINU - AUT [25020470]","code":"25020470","type":"Pluviométrica","lat":9.1178,"lon":-75.3933,"municipality":"Chinú","active":true,"elevation":125},{"name":"ESTACIÓN CHINÚ [2502500254]","code":"2502500254","type":"Climatológica Principal","lat":9.1046,"lon":-75.4055,"municipality":"Chinú","active":true,"elevation":21},{"name":"VILLANUEVA  [13040020]","code":"13040020","type":"Pluviométrica","lat":8.3667,"lon":-76.1167,"municipality":"Valencia","active":false,"elevation":110},{"name":"TIERRALTA [13047030]","code":"13047030","type":"Limnigráfica","lat":8.1871,"lon":-76.0646,"municipality":"Tierralta","active":false,"elevation":100},{"name":"BOCA DE LA CEIBA [13070070]","code":"13070070","type":"Pluviométrica","lat":8.8299,"lon":-75.8561,"municipality":"Montería","active":true,"elevation":20},{"name":"SAN BERNARDO  [13080050]","code":"13080050","type":"Pluviométrica","lat":9.3667,"lon":-75.95,"municipality":"San Bernardo Del Viento","active":false,"elevation":5},{"name":"FLOR DEL SINU [13070220]","code":"13070220","type":"Pluviométrica","lat":8.8167,"lon":-75.85,"municipality":"Montería","active":false,"elevation":13},{"name":"ESMERALDA LA [13025020]","code":"13025020","type":"Climatológica Ordinaria","lat":7.8333,"lon":-76.25,"municipality":"Tierralta","active":false,"elevation":170},{"name":"EL MONTON [13077300]","code":"13077300","type":"Limnimétrica","lat":8.8683,"lon":-75.8356,"municipality":"Montería","active":true,"elevation":13},{"name":"VILLA MARCELA [13070440]","code":"13070440","type":"Pluviométrica","lat":9.3522,"lon":-75.7189,"municipality":"San Antero","active":true,"elevation":40},{"name":"POLITO EL [13077130]","code":"13077130","type":"Limnimétrica","lat":8.9667,"lon":-75.7167,"municipality":"Ciénaga De Oro","active":false,"elevation":8},{"name":"UNIV DE CORDOBA [13075050]","code":"13075050","type":"Agrometeorológica","lat":8.7939,"lon":-75.8615,"municipality":"Montería","active":false,"elevation":15},{"name":"MOCARI [13070150]","code":"13070150","type":"Pluviográfica","lat":8.8,"lon":-75.8667,"municipality":"Montería","active":false,"elevation":14},{"name":"JUNQUILLO [13067060]","code":"13067060","type":"Limnimétrica","lat":8.408,"lon":-75.9121,"municipality":"Montería","active":false,"elevation":21},{"name":"CERROMATOSO  - AUT  [25015020]","code":"25015020","type":"Climatológica Principal","lat":7.9313,"lon":-75.5541,"municipality":"Montelíbano","active":true,"elevation":62},{"name":"URRA 2 [13015010]","code":"13015010","type":"Climatológica Ordinaria","lat":7.7333,"lon":-76.2,"municipality":"Tierralta","active":false,"elevation":88},{"name":"TUCURA [13015020]","code":"13015020","type":"Climatológica Ordinaria","lat":7.9667,"lon":-76.25,"municipality":"Tierralta","active":false,"elevation":110},{"name":"SAN BERNARDO DEL VIENTO - AUT [1303500067]","code":"1303500067","type":"Climatológica Principal","lat":9.37,"lon":-75.95,"municipality":"San Bernardo Del Viento","active":true,"elevation":5},{"name":"LIMON EL [13017020]","code":"13017020","type":"Limnigráfica","lat":7.8333,"lon":-76.2667,"municipality":"Tierralta","active":false,"elevation":108},{"name":"PUERTO MANGO [13027020]","code":"13027020","type":"Limnimétrica","lat":7.6167,"lon":-76.3,"municipality":"Tierralta","active":false,"elevation":150},{"name":"DOCTRINA LA [13085010]","code":"13085010","type":"Climatológica Principal","lat":9.2972,"lon":-75.8928,"municipality":"Lorica","active":true,"elevation":20},{"name":"SAN ANTERITO [13060010]","code":"13060010","type":"Pluviométrica","lat":8.5578,"lon":-75.8611,"municipality":"Montería","active":true,"elevation":75},{"name":"AEROPUERTO LOS GARZONES [13035501]","code":"13035501","type":"Sinóptica Secundaria","lat":8.8258,"lon":-75.8251,"municipality":"Montería","active":true,"elevation":20},{"name":"LORICA [13080020]","code":"13080020","type":"Pluviométrica","lat":9.25,"lon":-75.8333,"municipality":"Lorica","active":false,"elevation":80},{"name":"TRES PIEDRAS [13067010]","code":"13067010","type":"Limnimétrica","lat":8.4895,"lon":-75.9532,"municipality":"Montería","active":false,"elevation":20},{"name":"CNO EL MUERTO [13070420]","code":"13070420","type":"Pluviométrica","lat":9.3,"lon":-75.85,"municipality":"Lorica","active":false,"elevation":50},{"name":"CIENAGA DE ORO [13077070]","code":"13077070","type":"Limnimétrica","lat":8.8726,"lon":-75.626,"municipality":"Ciénaga De Oro","active":true,"elevation":10},{"name":"AEROPUERTO BERASTEGUI [13075040]","code":"13075040","type":"Sinóptica Secundaria","lat":8.8833,"lon":-75.6667,"municipality":"Ciénaga De Oro","active":false,"elevation":40},{"name":"URRA 1 [13030030]","code":"13030030","type":"Climatológica Principal","lat":7.9833,"lon":-76.2333,"municipality":"Tierralta","active":false,"elevation":78},{"name":"SAHAGUN - AUT   [1303500129]","code":"1303500129","type":"Climatológica Principal","lat":8.94,"lon":-75.45,"municipality":"Sahagún","active":false,"elevation":70},{"name":"MOMIL [13070020]","code":"13070020","type":"Pluviométrica","lat":9.2344,"lon":-75.6881,"municipality":"Momil","active":true,"elevation":20},{"name":"COROCITO [13070200]","code":"13070200","type":"Pluviométrica","lat":8.95,"lon":-75.8,"municipality":"San Pelayo","active":false,"elevation":20},{"name":"TORO EL [13047040]","code":"13047040","type":"Limnimétrica","lat":8.1135,"lon":-76.1279,"municipality":"Tierralta","active":false,"elevation":100},{"name":"SAIZA [13020040]","code":"13020040","type":"Pluviométrica","lat":7.7,"lon":-76.4833,"municipality":"Tierralta","active":false,"elevation":287},{"name":"TREMENTINO - AUT [25020430]","code":"25020430","type":"Pluviométrica","lat":8.7167,"lon":-75.7667,"municipality":"Montería","active":true,"elevation":19},{"name":"SAN PEDRO - AUT [25017020]","code":"25017020","type":"Limnigráfica","lat":7.8511,"lon":-75.7064,"municipality":"Puerto Libertador","active":true,"elevation":64},{"name":"URÉ [2501700189]","code":"2501700189","type":"Limnimétrica","lat":7.9133,"lon":-75.5662,"municipality":"San Jose De Ure","active":false,"elevation":200},{"name":"PALOMAS LAS [13037020]","code":"13037020","type":"Limnimétrica","lat":8.45,"lon":-76.0167,"municipality":"Montería","active":false,"elevation":27},{"name":"SAN ANTONIO [13080010]","code":"13080010","type":"Pluviométrica","lat":8.9359,"lon":-75.9533,"municipality":"San Pelayo","active":true,"elevation":50},{"name":"BUENAVISTA - AUT [25020520]","code":"25020520","type":"Pluviométrica","lat":8.2053,"lon":-75.4702,"municipality":"Buenavista","active":true,"elevation":62},{"name":"LOS CAIMANES  [2502500007]","code":"2502500007","type":"Climatológica Ordinaria","lat":8.1159,"lon":-75.4134,"municipality":"Buenavista","active":true,"elevation":72},{"name":"PALMA CENTRAL [13077030]","code":"13077030","type":"Limnimétrica","lat":9.1956,"lon":-75.8182,"municipality":"Lorica","active":false,"elevation":6},{"name":"HORIZONTE [13070230]","code":"13070230","type":"Pluviométrica","lat":8.7667,"lon":-75.8667,"municipality":"Montería","active":false,"elevation":10},{"name":"BEIRUT - AUT [25027760]","code":"25027760","type":"Limnigráfica","lat":8.3022,"lon":-75.1339,"municipality":"Ayapel","active":true,"elevation":26},{"name":"ESTACIÓN EL TORO [1302500245]","code":"1302500245","type":"Climatológica Principal","lat":8.1124,"lon":-76.1255,"municipality":"Tierralta","active":true,"elevation":145},{"name":"FLECHA LA [13010040]","code":"13010040","type":"Pluviométrica","lat":7.6333,"lon":-75.9667,"municipality":"Tierralta","active":false,"elevation":500},{"name":"COCORILLA [13077240]","code":"13077240","type":"Limnimétrica","lat":9.3,"lon":-75.7833,"municipality":"San Antero","active":false,"elevation":50},{"name":"INCODER - AUT [13055040]","code":"13055040","type":"Agrometeorológica","lat":8.7469,"lon":-75.9139,"municipality":"Montería","active":false,"elevation":37},{"name":"ESTACIÓN BOCATOMA SAN BERNARDO DEL VIENTO [1303500257]","code":"1303500257","type":"Climatológica Principal","lat":9.3393,"lon":-75.9506,"municipality":"San Bernardo Del Viento","active":true,"elevation":3},{"name":"ESTACIÓN CANALETE [1204500255]","code":"1204500255","type":"Climatológica Principal","lat":8.7866,"lon":-76.2359,"municipality":"Canalete","active":true,"elevation":26},{"name":"ANGOSTURA DE URRA [13037010]","code":"13037010","type":"Limnigráfica","lat":8,"lon":-76.25,"municipality":"Tierralta","active":false,"elevation":77},{"name":"PALMA DE VINO [13070340]","code":"13070340","type":"Pluviométrica","lat":8.7333,"lon":-75.8,"municipality":"Montería","active":false,"elevation":20},{"name":"BERASTEGUI [13077090]","code":"13077090","type":"Limnimétrica","lat":8.9333,"lon":-75.7167,"municipality":"Ciénaga De Oro","active":false,"elevation":9},{"name":"CALLEMAR [13070120]","code":"13070120","type":"Pluviométrica","lat":8.6975,"lon":-75.6778,"municipality":"San Carlos","active":true,"elevation":95},{"name":"URRA SANDUBO [13017050]","code":"13017050","type":"Limnigráfica","lat":7.7515,"lon":-76.2278,"municipality":"Tierralta","active":false,"elevation":150},{"name":"VENECIA [13077160]","code":"13077160","type":"Limnimétrica","lat":9.1833,"lon":-75.5167,"municipality":"San Andrés De Sotavento","active":false,"elevation":92},{"name":"CENTRO ALEGRE [25015010]","code":"25015010","type":"Pluviométrica","lat":8.1808,"lon":-75.6323,"municipality":"Planeta Rica","active":true,"elevation":170},{"name":"CARRILLO [13070180]","code":"13070180","type":"Pluviométrica","lat":8.9844,"lon":-75.8318,"municipality":"San Pelayo","active":true,"elevation":20},{"name":"CANALETE [12047010]","code":"12047010","type":"Limnimétrica","lat":8.787,"lon":-76.2364,"municipality":"Canalete","active":false,"elevation":35},{"name":"ESTACIÓN COTOCA ARRIBA [1303500248]","code":"1303500248","type":"Climatológica Principal","lat":9.1344,"lon":-75.8377,"municipality":"Lorica","active":true,"elevation":21},{"name":"MARACAYO [13067040]","code":"13067040","type":"Limnimétrica","lat":8.4094,"lon":-75.8893,"municipality":"Montería","active":true,"elevation":25},{"name":"CERETE [13070380]","code":"13070380","type":"Pluviométrica","lat":8.8851,"lon":-75.7974,"municipality":"Cereté","active":false,"elevation":20},{"name":"TRES PIEDRAS [13050040]","code":"13050040","type":"Pluviométrica","lat":8.45,"lon":-75.9667,"municipality":"Montería","active":false,"elevation":30},{"name":"MOMIL [13077020]","code":"13077020","type":"Limnimétrica","lat":9.2366,"lon":-75.6813,"municipality":"Momil","active":true,"elevation":1},{"name":"GARZONES LOS [13077280]","code":"13077280","type":"Limnimétrica","lat":8.8266,"lon":-75.842,"municipality":"Montería","active":false,"elevation":18},{"name":"ESTACIÓN PUENTE RÍO SAN PEDRO [2501500247]","code":"2501500247","type":"Climatológica Principal","lat":7.851,"lon":-75.7064,"municipality":"Puerto Libertador","active":true,"elevation":102},{"name":"SAN ANTONIO [13080030]","code":"13080030","type":"Pluviográfica","lat":8.9333,"lon":-75.9833,"municipality":"San Pelayo","active":false,"elevation":50},{"name":"JUNIN [13087010]","code":"13087010","type":"Limnimétrica","lat":9.2333,"lon":-76.0333,"municipality":"San Bernardo Del Viento","active":false,"elevation":24},{"name":"CAMPO BELLO [13015030]","code":"13015030","type":"Climatológica Principal","lat":7.9833,"lon":-76.2333,"municipality":"Tierralta","active":false,"elevation":78},{"name":"ACACIAS LAS HACIENDA [25010110]","code":"25010110","type":"Pluviométrica","lat":8.0061,"lon":-75.6472,"municipality":"Puerto Libertador","active":true,"elevation":80},{"name":"NUBES LAS [13047020]","code":"13047020","type":"Limnimétrica","lat":8.3167,"lon":-76.1,"municipality":"Valencia","active":false,"elevation":70},{"name":"HIGAL EL [13077080]","code":"13077080","type":"Limnimétrica","lat":8.9441,"lon":-75.6029,"municipality":"Ciénaga De Oro","active":false,"elevation":8},{"name":"CGA DE ORO [13070060]","code":"13070060","type":"Pluviométrica","lat":8.8725,"lon":-75.6258,"municipality":"Ciénaga De Oro","active":false,"elevation":10},{"name":"VORAGINE LA [13055010]","code":"13055010","type":"Climatológica Ordinaria","lat":8.6,"lon":-76.0333,"municipality":"Montería","active":false,"elevation":80},{"name":"JARAMAGAL [12040010]","code":"12040010","type":"Pluviométrica","lat":8.9008,"lon":-76.2208,"municipality":"Puerto Escondido","active":true,"elevation":90},{"name":"AYAPEL BEIRUT [25027230]","code":"25027230","type":"Limnimétrica","lat":8.3,"lon":-75.1167,"municipality":"Ayapel","active":false,"elevation":25},{"name":"CRUZ CHIQUITA [13077270]","code":"13077270","type":"Limnimétrica","lat":9.2167,"lon":-75.5,"municipality":"San Andrés De Sotavento","active":false,"elevation":120},{"name":"BOCAS DEL PERRO  [25010030]","code":"25010030","type":"Pluviométrica","lat":7.9,"lon":-75.85,"municipality":"Montelíbano","active":false,"elevation":70},{"name":"SOLEDAD [13077190]","code":"13077190","type":"Limnimétrica","lat":9.35,"lon":-75.8667,"municipality":"San Antero","active":false,"elevation":1},{"name":"GALAN [13055030]","code":"13055030","type":"Climatológica Ordinaria","lat":8.6592,"lon":-75.9725,"municipality":"Montería","active":false,"elevation":30},{"name":"JARUPIA  [13020030]","code":"13020030","type":"Pluviométrica","lat":7.9,"lon":-76.2833,"municipality":"Tierralta","active":false,"elevation":140},{"name":"CARAMELO [13060030]","code":"13060030","type":"Pluviométrica","lat":8.2661,"lon":-75.9039,"municipality":"Tierralta","active":true,"elevation":60},{"name":"TUCURA  [13010030]","code":"13010030","type":"Pluviográfica","lat":7.95,"lon":-76.25,"municipality":"Tierralta","active":false,"elevation":120},{"name":"SAN CONALITO [13017040]","code":"13017040","type":"Limnimétrica","lat":7.6833,"lon":-76.1167,"municipality":"Tierralta","active":false,"elevation":100},{"name":"SANTA LUCIA [13050010]","code":"13050010","type":"Pluviométrica","lat":8.8486,"lon":-76.0453,"municipality":"Montería","active":true,"elevation":120},{"name":"MARACAYO [13065020]","code":"13065020","type":"Climatológica Ordinaria","lat":8.41,"lon":-75.88,"municipality":"Montería","active":true,"elevation":25},{"name":"TIERRALTA  [13030020]","code":"13030020","type":"Pluviométrica","lat":8.1833,"lon":-76.0667,"municipality":"Tierralta","active":false,"elevation":50},{"name":"PASACABALLOS [13047050]","code":"13047050","type":"Limnigráfica","lat":8.05,"lon":-76.2,"municipality":"Tierralta","active":false,"elevation":65},{"name":"PICA PICA  - AUT [25017030]","code":"25017030","type":"Limnigráfica","lat":8.03,"lon":-75.68,"municipality":"Montelíbano","active":true,"elevation":96},{"name":"MONTERIA [13070270]","code":"13070270","type":"Pluviométrica","lat":8.8265,"lon":-75.8418,"municipality":"Montería","active":false,"elevation":17},{"name":"CALIFORNIA [13070130]","code":"13070130","type":"Pluviográfica","lat":8.7833,"lon":-75.8333,"municipality":"Montería","active":false,"elevation":13},{"name":"LORICA [13080040]","code":"13080040","type":"Pluviométrica","lat":9.25,"lon":-75.8333,"municipality":"Lorica","active":false,"elevation":80},{"name":"COTORRA [13070210]","code":"13070210","type":"Pluviométrica","lat":9.0333,"lon":-75.7833,"municipality":"Cotorra","active":false,"elevation":20},{"name":"COROZA 2 [13070190]","code":"13070190","type":"Pluviométrica","lat":8.8047,"lon":-75.765,"municipality":"San Carlos","active":true,"elevation":9},{"name":"MARRALU [25027120]","code":"25027120","type":"Limnimétrica","lat":8.314,"lon":-75.2396,"municipality":"Ayapel","active":true,"elevation":27},{"name":"SALADO EL [13075020]","code":"13075020","type":"Climatológica Ordinaria","lat":8.9139,"lon":-75.5822,"municipality":"Ciénaga De Oro","active":true,"elevation":40},{"name":"LORICA [13077170]","code":"13077170","type":"Limnimétrica","lat":9.2267,"lon":-75.815,"municipality":"Lorica","active":true,"elevation":5},{"name":"MANSO EL  [13035020]","code":"13035020","type":"Climatológica Ordinaria","lat":7.85,"lon":-76.3,"municipality":"Tierralta","active":false,"elevation":160},{"name":"VERACRUZ HACIENDA [25020170]","code":"25020170","type":"Pluviométrica","lat":8.4167,"lon":-75.5667,"municipality":"Planeta Rica","active":false,"elevation":90},{"name":"PUENTE EL [13067070]","code":"13067070","type":"Limnimétrica","lat":8.4333,"lon":-75.95,"municipality":"Montería","active":false,"elevation":21},{"name":"JUAN JOSE  [25010020]","code":"25010020","type":"Pluviométrica","lat":7.7333,"lon":-75.85,"municipality":"Montelíbano","active":false,"elevation":130},{"name":"MOCARI [13077100]","code":"13077100","type":"Limnigráfica","lat":8.8,"lon":-75.85,"municipality":"Montería","active":false,"elevation":14},{"name":"CARRIZAL [13070110]","code":"13070110","type":"Pluviométrica","lat":8.6819,"lon":-75.7535,"municipality":"San Carlos","active":true,"elevation":40},{"name":"APARTADA LA [25020700]","code":"25020700","type":"Pluviométrica","lat":8.0531,"lon":-75.3386,"municipality":"La Apartada","active":true,"elevation":50},{"name":"SAIZA [13025010]","code":"13025010","type":"Climatológica Principal","lat":7.7,"lon":-76.4833,"municipality":"Tierralta","active":false,"elevation":287},{"name":"MARRALU - AUT [25027770]","code":"25027770","type":"Limnigráfica","lat":8.3147,"lon":-75.2395,"municipality":"Ayapel","active":true,"elevation":23},{"name":"SABANA NUEVA [13070030]","code":"13070030","type":"Pluviométrica","lat":9.0333,"lon":-75.8333,"municipality":"San Pelayo","active":false,"elevation":20},{"name":"SILENCIO EL  [13070400]","code":"13070400","type":"Pluviométrica","lat":9.1667,"lon":-75.6,"municipality":"Chima","active":false,"elevation":5},{"name":"CERRO BAHIA [13070240]","code":"13070240","type":"Pluviométrica","lat":9.3,"lon":-75.85,"municipality":"Lorica","active":false,"elevation":50},{"name":"ESTACIÓN GECELCA 3.2  [2501500057]","code":"2501500057","type":"Climatológica Principal","lat":7.9994,"lon":-75.5975,"municipality":"Puerto Libertador","active":true,"elevation":78},{"name":"AYAPEL - AUT [25025030]","code":"25025030","type":"Climatológica Ordinaria","lat":8.2951,"lon":-75.1646,"municipality":"Ayapel","active":true,"elevation":20},{"name":"FEDEARROZ_CORDOBA_TIERRALTA [1302500322]","code":"1302500322","type":"Agrometeorológica","lat":8.2298,"lon":-76.0302,"municipality":"Tierralta","active":true,"elevation":44},{"name":"TRES PALMAS [13067050]","code":"13067050","type":"Limnimétrica","lat":8.5056,"lon":-75.9522,"municipality":"Montería","active":false,"elevation":18},{"name":"CIELO EL [13020020]","code":"13020020","type":"Pluviométrica","lat":7.9167,"lon":-76.4167,"municipality":"Tierralta","active":false,"elevation":650},{"name":"VENECIA [13070430]","code":"13070430","type":"Pluviométrica","lat":9.1953,"lon":-75.5411,"municipality":"San Andrés De Sotavento","active":true,"elevation":50},{"name":"SANTA CRUZ HACIENDA [13050020]","code":"13050020","type":"Pluviométrica","lat":8.6675,"lon":-76.1239,"municipality":"Montería","active":true,"elevation":220},{"name":"SALTO VIEJO [13017030]","code":"13017030","type":"Limnigráfica","lat":7.7833,"lon":-76.2333,"municipality":"Tierralta","active":false,"elevation":131},{"name":"ESTACIÓN BOCA DE LA CEIBA [1303500260]","code":"1303500260","type":"Climatológica Principal","lat":8.831,"lon":-75.8548,"municipality":"Montería","active":true,"elevation":32},{"name":"SAHAGÚN - AUT [1303500073]","code":"1303500073","type":"Climatológica Principal","lat":8.9422,"lon":-75.4507,"municipality":"Sahagún","active":false,"elevation":70},{"name":"DESPENSA LA [13017010]","code":"13017010","type":"Limnigráfica","lat":7.8667,"lon":-76.2833,"municipality":"Tierralta","active":false,"elevation":106},{"name":"NUEVA COLOMBIA AUT [13057010]","code":"13057010","type":"Limnigráfica","lat":8.4994,"lon":-75.9786,"municipality":"Montería","active":true,"elevation":20},{"name":"URÉ [25010060]","code":"25010060","type":"Pluviométrica","lat":7.8848,"lon":-75.5107,"municipality":"San Jose De Ure","active":true,"elevation":200},{"name":"PUERTO NUEVO [13035010]","code":"13035010","type":"Climatológica Principal","lat":7.95,"lon":-76.2833,"municipality":"Tierralta","active":false,"elevation":145},{"name":"TURIPANA  [13070350]","code":"13070350","type":"Pluviométrica","lat":8.85,"lon":-75.8333,"municipality":"Cereté","active":false,"elevation":13},{"name":"BETANCI [13067080]","code":"13067080","type":"Limnimétrica","lat":8.504,"lon":-75.9637,"municipality":"Montería","active":false,"elevation":17},{"name":"CUESANTA ABAJO [13077260]","code":"13077260","type":"Limnimétrica","lat":9.15,"lon":-75.5167,"municipality":"San Andrés De Sotavento","active":false,"elevation":80},{"name":"FEDEARROZ_MONTERIA_VICTORIA_WIFI [1303500295]","code":"1303500295","type":"Agrometeorológica","lat":8.7734,"lon":-75.8406,"municipality":"Montería","active":true,"elevation":10},{"name":"PUERTO LIBERTADOR - AUT [25010010]","code":"25010010","type":"Climatológica Principal","lat":7.8903,"lon":-75.68,"municipality":"Puerto Libertador","active":true,"elevation":55},{"name":"MONTERIA  - AUT [13067020]","code":"13067020","type":"Limnigráfica","lat":8.7516,"lon":-75.8924,"municipality":"Montería","active":true,"elevation":15},{"name":"CANAFINA [13027030]","code":"13027030","type":"Limnimétrica","lat":7.85,"lon":-76.3167,"municipality":"Tierralta","active":false,"elevation":90},{"name":"THELWELL  [13070370]","code":"13070370","type":"Pluviométrica","lat":8.9,"lon":-75.7833,"municipality":"Cereté","active":false,"elevation":12},{"name":"CUBA HACIENDA [25025160]","code":"25025160","type":"Climatológica Ordinaria","lat":8.0039,"lon":-75.4028,"municipality":"Montelíbano","active":true,"elevation":50},{"name":"PUERTO CORDOBA [25027070]","code":"25027070","type":"Limnimétrica","lat":8.0679,"lon":-75.3578,"municipality":"La Apartada","active":true,"elevation":29},{"name":"Coveñas [17047010]","code":"17047010","type":"Meteorologica Marina","lat":9.3333,"lon":-75.6667,"municipality":"Momil","active":false,"elevation":0},{"name":"LOMA VERDE - AUT [1303500074]","code":"1303500074","type":"Climatológica Principal","lat":8.5088,"lon":-76.1754,"municipality":"Montería","active":false,"elevation":82},{"name":"LOMA VERDE [13050030]","code":"13050030","type":"Pluviométrica","lat":8.5019,"lon":-76.1753,"municipality":"Montería","active":true,"elevation":100},{"name":"MONTELIBANO [25010090]","code":"25010090","type":"Pluviométrica","lat":8.0333,"lon":-75.4833,"municipality":"Montelíbano","active":false,"elevation":100},{"name":"PUERTO SALGAR - AUT [13037030]","code":"13037030","type":"Limnimétrica","lat":8.1,"lon":-76.1,"municipality":"Tierralta","active":false,"elevation":54},{"name":"PAJAROS  LOS [25020480]","code":"25020480","type":"Pluviométrica","lat":8.3406,"lon":-74.8678,"municipality":"Ayapel","active":false,"elevation":25},{"name":"CHIMA [13070300]","code":"13070300","type":"Pluviométrica","lat":9.15,"lon":-75.6167,"municipality":"Chima","active":false,"elevation":30},{"name":"CHIMA [13075010]","code":"13075010","type":"Climatológica Ordinaria","lat":9.1508,"lon":-75.6221,"municipality":"Chima","active":true,"elevation":20},{"name":"ICOTEAS LAS [13070330]","code":"13070330","type":"Pluviográfica","lat":9.05,"lon":-75.7667,"municipality":"Cotorra","active":false,"elevation":20},{"name":"CINTURA [25020710]","code":"25020710","type":"Pluviométrica","lat":8.42,"lon":-75.2739,"municipality":"Pueblo Nuevo","active":true,"elevation":25},{"name":"BUENOS AIRES [13060020]","code":"13060020","type":"Pluviométrica","lat":8.4758,"lon":-75.7653,"municipality":"Montería","active":true,"elevation":55},{"name":"ESTACIÓN GECELCA 3 [2501500252]","code":"2501500252","type":"Climatológica Principal","lat":7.9996,"lon":-75.5976,"municipality":"Puerto Libertador","active":true,"elevation":102},{"name":"CERETE [13070050]","code":"13070050","type":"Pluviométrica","lat":8.8903,"lon":-75.7862,"municipality":"Cereté","active":true,"elevation":20},{"name":"LIMON EL [13070010]","code":"13070010","type":"Pluviométrica","lat":9.3361,"lon":-75.9375,"municipality":"San Bernardo Del Viento","active":true,"elevation":3},{"name":"ESTACIÓN ANTIGUA BOCATOMA DEL ACUEDUCTO [2502500253]","code":"2502500253","type":"Climatológica Principal","lat":8.314,"lon":-75.2394,"municipality":"Ayapel","active":true,"elevation":32},{"name":"SAHAGUN [25020140]","code":"25020140","type":"Climatológica Principal","lat":8.9422,"lon":-75.4507,"municipality":"Sahagún","active":true,"elevation":60},{"name":"ESTACIÓN PUERTO LIBERTADOR LA ESTRELLA [2501500249]","code":"2501500249","type":"Climatológica Principal","lat":7.7643,"lon":-75.7131,"municipality":"Puerto Libertador","active":true,"elevation":199},{"name":"MOLINILLO [13010010]","code":"13010010","type":"Pluviométrica","lat":7.6833,"lon":-76.05,"municipality":"Tierralta","active":false,"elevation":500},{"name":"RABOLARGO [13070040]","code":"13070040","type":"Pluviométrica","lat":8.9506,"lon":-75.7425,"municipality":"Cereté","active":true,"elevation":19},{"name":"CECILIA [2502700206]","code":"2502700206","type":"Limnigráfica","lat":8.4636,"lon":-75.0317,"municipality":"Ayapel","active":true,"elevation":24},{"name":"EL BONGO [13077050]","code":"13077050","type":"Limnimétrica","lat":8.9376,"lon":-75.8564,"municipality":"San Pelayo","active":false,"elevation":11},{"name":"TREMENTINO [25021210]","code":"25021210","type":"Pluviométrica","lat":8.82,"lon":-75.47,"municipality":"Sahagún","active":true,"elevation":136},{"name":"DOCTRINA LA [13080060]","code":"13080060","type":"Pluviométrica","lat":9.3,"lon":-75.8833,"municipality":"Lorica","active":false,"elevation":4},{"name":"SABANAL [13070280]","code":"13070280","type":"Pluviométrica","lat":8.7886,"lon":-75.7514,"municipality":"Montería","active":true,"elevation":10},{"name":"ESTACIÓN SAN CLEMENTE [1302500256]","code":"1302500256","type":"Climatológica Principal","lat":8.0571,"lon":-76.1494,"municipality":"Tierralta","active":true,"elevation":66},{"name":"SAIZA - AUT [29045150]","code":"29045150","type":"Climatológica Principal","lat":7.746,"lon":-76.4325,"municipality":"Tierralta","active":false,"elevation":287},{"name":"PEZVAL [13040030]","code":"13040030","type":"Pluviométrica","lat":8.2622,"lon":-76.1692,"municipality":"Valencia","active":true,"elevation":80},{"name":"SANTA HELENA [13067030]","code":"13067030","type":"Limnimétrica","lat":8.5654,"lon":-75.9659,"municipality":"Montería","active":false,"elevation":25},{"name":"CHIMA [13070310]","code":"13070310","type":"Pluviográfica","lat":9.15,"lon":-75.6167,"municipality":"Chima","active":false,"elevation":30},{"name":"DESPENSA LA [13020010]","code":"13020010","type":"Pluviométrica","lat":7.8833,"lon":-76.3,"municipality":"Tierralta","active":false,"elevation":160},{"name":"BOCAS DE URE  [25010040]","code":"25010040","type":"Pluviométrica","lat":7.95,"lon":-75.5167,"municipality":"Montelíbano","active":false,"elevation":30},{"name":"BERASTEGUI [13070160]","code":"13070160","type":"Pluviométrica","lat":8.8833,"lon":-75.7,"municipality":"Ciénaga De Oro","active":false,"elevation":20},{"name":"BERASTEGUI  [13070410]","code":"13070410","type":"Pluviográfica","lat":8.8833,"lon":-74.6833,"municipality":"Montería","active":false,"elevation":220},{"name":"SICARA [13077180]","code":"13077180","type":"Limnimétrica","lat":9.35,"lon":-75.95,"municipality":"San Bernardo Del Viento","active":false,"elevation":2},{"name":"URRÁ RÍO SINÚ - AUT [1301700132]","code":"1301700132","type":"Limnigráfica","lat":7.7443,"lon":-76.2476,"municipality":"Tierralta","active":true,"elevation":134},{"name":"REPRESA URRA [13015040]","code":"13015040","type":"Climatológica Principal","lat":8.0142,"lon":-76.2031,"municipality":"Tierralta","active":true,"elevation":300},{"name":"SANTA ROSA [13070100]","code":"13070100","type":"Pluviométrica","lat":8.7411,"lon":-75.6014,"municipality":"San Carlos","active":false,"elevation":140},{"name":"TENERIFE [13055020]","code":"13055020","type":"Climatológica Ordinaria","lat":8.6833,"lon":-76.1167,"municipality":"Montería","active":false,"elevation":150},{"name":"SIGLO EL [13070080]","code":"13070080","type":"Pluviográfica","lat":8.95,"lon":-75.5667,"municipality":"Ciénaga De Oro","active":false,"elevation":40},{"name":"CASA BOMBAS [13077110]","code":"13077110","type":"Limnimétrica","lat":9.3,"lon":-75.9,"municipality":"Lorica","active":false,"elevation":4},{"name":"ESTACIÓN VÍA ARBOLETES [1303500259]","code":"1303500259","type":"Climatológica Principal","lat":8.775,"lon":-75.8901,"municipality":"Montería","active":true,"elevation":25},{"name":"JOBO EL TABLON [25020720]","code":"25020720","type":"Pluviométrica","lat":8.6372,"lon":-75.3836,"municipality":"Sahagún","active":true,"elevation":130},{"name":"JARAGUAY [13045010]","code":"13045010","type":"Climatológica Ordinaria","lat":8.3,"lon":-76.0833,"municipality":"Valencia","active":false,"elevation":70},{"name":"DESPENSA LA [13025030]","code":"13025030","type":"Climatológica Ordinaria","lat":7.8833,"lon":-76.3,"municipality":"Tierralta","active":false,"elevation":160},{"name":"MONTERIA  [13070360]","code":"13070360","type":"Pluviométrica","lat":8.75,"lon":-75.8667,"municipality":"Montería","active":false,"elevation":20},{"name":"QUIMARI [13040010]","code":"13040010","type":"Pluviométrica","lat":8.0667,"lon":-76.3333,"municipality":"Tierralta","active":false,"elevation":200},{"name":"LORICA  ITA - AUT [13085050]","code":"13085050","type":"Climatológica Principal","lat":9.2527,"lon":-75.8444,"municipality":"Lorica","active":false,"elevation":30},{"name":"ESTACIÓN EL SALTILLO DEL LORO [1302500261]","code":"1302500261","type":"Climatológica Principal","lat":8.0189,"lon":-76.1265,"municipality":"Tierralta","active":true,"elevation":82},{"name":"CERETE  [13075070]","code":"13075070","type":"Climatológica Ordinaria","lat":8.9,"lon":-75.7833,"municipality":"Cereté","active":false,"elevation":190},{"name":"PLANETA RICA [25021550]","code":"25021550","type":"Pluviométrica","lat":8.4167,"lon":-75.5667,"municipality":"Planeta Rica","active":false,"elevation":90},{"name":"PICA PICA [25010080]","code":"25010080","type":"Pluviométrica","lat":8.03,"lon":-75.68,"municipality":"Montelíbano","active":true,"elevation":100},{"name":"URRA SANDUBO [13010050]","code":"13010050","type":"Pluviográfica","lat":7.7515,"lon":-76.2278,"municipality":"Tierralta","active":false,"elevation":150},{"name":"MONTERIA [13075060]","code":"13075060","type":"Climatológica Ordinaria","lat":8.75,"lon":-75.8833,"municipality":"Montería","active":false,"elevation":20},{"name":"TUCURA [13010020]","code":"13010020","type":"Pluviométrica","lat":7.9333,"lon":-76.2667,"municipality":"Tierralta","active":false,"elevation":120},{"name":"CECILIA [25020780]","code":"25020780","type":"Pluviométrica","lat":8.4614,"lon":-75.0342,"municipality":"Ayapel","active":false,"elevation":20},{"name":"TURIPANA [13075030]","code":"13075030","type":"Climatológica Principal","lat":8.8395,"lon":-75.8019,"municipality":"Cereté","active":true,"elevation":20},{"name":"JUAN JOSE - AUT   [2501500120]","code":"2501500120","type":"Climatológica Principal","lat":7.7302,"lon":-75.8516,"municipality":"Puerto Libertador","active":false,"elevation":127},{"name":"ESMERALDA LA [13027010]","code":"13027010","type":"Limnimétrica","lat":7.75,"lon":-76.25,"municipality":"Tierralta","active":false,"elevation":170},{"name":"BAJO GRANDE [13077220]","code":"13077220","type":"Limnimétrica","lat":9.15,"lon":-75.5167,"municipality":"San Andrés De Sotavento","active":false,"elevation":48},{"name":"AGUAS MOHOSAS [13070450]","code":"13070450","type":"Pluviométrica","lat":9.2511,"lon":-75.4917,"municipality":"San Andrés De Sotavento","active":true,"elevation":75},{"name":"TIERRALTA [13030010]","code":"13030010","type":"Pluviométrica","lat":8.1867,"lon":-76.0531,"municipality":"Tierralta","active":true,"elevation":100},{"name":"CERETE [13077150]","code":"13077150","type":"Limnimétrica","lat":8.8851,"lon":-75.7974,"municipality":"Cereté","active":false,"elevation":20},{"name":"TORPEZA LA [13065010]","code":"13065010","type":"Climatológica Ordinaria","lat":8.4333,"lon":-75.9667,"municipality":"Montería","active":false,"elevation":42},{"name":"SABANA NUEVA [13077010]","code":"13077010","type":"Limnimétrica","lat":9.0322,"lon":-75.8458,"municipality":"San Pelayo","active":true,"elevation":9},{"name":"LAMAS 3 [13070260]","code":"13070260","type":"Pluviométrica","lat":8.7333,"lon":-75.85,"municipality":"Montería","active":false,"elevation":18},{"name":"SAN FRANCISCO [25010100]","code":"25010100","type":"Pluviométrica","lat":8.1292,"lon":-75.76,"municipality":"Montelíbano","active":true,"elevation":160},{"name":"COTOCA ABAJO  - AUT [13077060]","code":"13077060","type":"Limnigráfica","lat":9.2237,"lon":-75.8361,"municipality":"Lorica","active":true,"elevation":5},{"name":"TAMPA [13070290]","code":"13070290","type":"Pluviométrica","lat":8.6247,"lon":-75.7672,"municipality":"Montería","active":false,"elevation":20},{"name":"CERRO BOMBA [13097040]","code":"13097040","type":"Limnimétrica","lat":9.2667,"lon":-75.5,"municipality":"San Andrés De Sotavento","active":false,"elevation":50},{"name":"CHIMA [13070320]","code":"13070320","type":"Pluviométrica","lat":9.1333,"lon":-75.6333,"municipality":"Chima","active":false,"elevation":20},{"name":"SAN BERNARDO DEL VIENTO [13085030]","code":"13085030","type":"Pluviométrica","lat":9.37,"lon":-75.95,"municipality":"San Bernardo Del Viento","active":true,"elevation":22},{"name":"COROZA 1 [13070140]","code":"13070140","type":"Pluviográfica","lat":8.8333,"lon":-75.75,"municipality":"Cereté","active":false,"elevation":9},{"name":"TRAPICHE EL [13070250]","code":"13070250","type":"Pluviométrica","lat":9.3167,"lon":-75.8833,"municipality":"Lorica","active":false,"elevation":4},{"name":"RUSIA [13047010]","code":"13047010","type":"Limnimétrica","lat":8.2833,"lon":-76.2667,"municipality":"Valencia","active":false,"elevation":110},{"name":"ESTACIÓN EL PURGATORIO [1303500258]","code":"1303500258","type":"Climatológica Principal","lat":8.6737,"lon":-75.8001,"municipality":"Montería","active":true,"elevation":84},{"name":"SAN CARLOS [13070090]","code":"13070090","type":"Pluviométrica","lat":8.7906,"lon":-75.7014,"municipality":"San Carlos","active":true,"elevation":60},{"name":"PUENTE SAN CARLOS [13077140]","code":"13077140","type":"Limnimétrica","lat":8.9,"lon":-75.7333,"municipality":"Ciénaga De Oro","active":false,"elevation":10},{"name":"ESTACIÓN BATATA [1301500246]","code":"1301500246","type":"Climatológica Principal","lat":8.0343,"lon":-76.3389,"municipality":"Tierralta","active":true,"elevation":142},{"name":"ESTACIÓN JARAQUIEL [1302500250]","code":"1302500250","type":"Climatológica Principal","lat":8.6112,"lon":-75.9598,"municipality":"Montería","active":true,"elevation":47},{"name":"LA CHIQUICERA [25027700]","code":"25027700","type":"Limnimétrica","lat":8.2851,"lon":-75.5109,"municipality":"Planeta Rica","active":true,"elevation":42},{"name":"CRISTO REY  - AUT [12045020]","code":"12045020","type":"Climatológica Ordinaria","lat":9.0711,"lon":-76.2244,"municipality":"Puerto Escondido","active":false,"elevation":15},{"name":"CANO BARRO - AUT [13027040]","code":"13027040","type":"Limnigráfica","lat":8.2368,"lon":-74.9626,"municipality":"Ayapel","active":true,"elevation":24},{"name":"COLOMBOY [25025170]","code":"25025170","type":"Pluviométrica","lat":8.7409,"lon":-75.4988,"municipality":"Sahagún","active":true,"elevation":125},{"name":"C.E. LA VICTORIA [1303500339]","code":"1303500339","type":"Agrometeorológica","lat":8.7164,"lon":-75.8368,"municipality":"Montería","active":true,"elevation":22},{"name":"ESTACIÓN MONTELÍBANO [2502500251]","code":"2502500251","type":"Climatológica Principal","lat":8.2884,"lon":-75.1557,"municipality":"Ayapel","active":true,"elevation":32},{"name":"RIO VERDE  [25010050]","code":"25010050","type":"Pluviométrica","lat":7.8667,"lon":-75.5,"municipality":"Montelíbano","active":false,"elevation":75},{"name":"SAJONIA HACIENDA - AUT [25020600]","code":"25020600","type":"Pluviométrica","lat":8.4897,"lon":-75.6014,"municipality":"Pueblo Nuevo","active":true,"elevation":100},{"name":"SAN CARLOS [13077120]","code":"13077120","type":"Limnimétrica","lat":8.8,"lon":-75.7,"municipality":"San Carlos","active":false,"elevation":10},{"name":"CANALETE [12040020]","code":"12040020","type":"Pluviométrica","lat":8.7869,"lon":-76.2356,"municipality":"Canalete","active":true,"elevation":40},{"name":"CARRIZOLA [13037040]","code":"13037040","type":"Limnimétrica","lat":8.1611,"lon":-76.0958,"municipality":"Tierralta","active":true,"elevation":52}]